[
    {
        "index": "1",
        "star": "五星",
        "starNum": 5,
        "park": "江苏岩藤农业园",
        "address": "江苏省句容市后白镇新104国道后白镇向南3公里",
        "tel": "15252978921",
        "name": "熊伟",
        "area": "3000亩",
        "particluar": "高档花卉、苗木种植、绿色农产品生产与销售、水产畜禽养殖、农业生态开发、观光旅游、开心农业园、休闲娱乐为一体的农业综合性开发专业公司。",
        "lng": "119.188347",
        "lat": "31.805519",
        "imgUrl": "http://qiniu.iwooke.com/images/tId=1595923052789江苏岩藤农业园.jpg"
    },
    {
        "index": "2",
        "star": "四星",
        "starNum": 4,
        "park": "江苏省戴庄有机文化体验园",
        "address": "江苏省句容市戴庄村",
        "tel": "15252983739",
        "name": "姚伟超",
        "area": "500亩",
        "particluar": "可赏果林、采摘农家菜、垂钓，是苏南地区最大的无公害果品生产基地。",
        "lng": "119.16864",
        "lat": "31.94482",
        "imgUrl": "http://qiniu.iwooke.com/images/tId=1595923019767江苏省戴庄有机文化体验园.jpg"
    },
    {
        "index": "3",
        "star": "四星",
        "starNum": 4,
        "park": "句容天王镇唐陵木易园",
        "address": "江苏省句容市天王镇唐陵村",
        "tel": "18852888388",
        "name": "张勇",
        "area": "1512亩",
        "particluar": "园区内有唐陵人文特色缩影，300亩紫薇花海。",
        "lng": "119.25856",
        "lat": "31.74324",
        "imgUrl": "http://qiniu.iwooke.com/images/tId=1595923430449句容天王镇唐陵木易园.jpg"
    },
    {
        "index": "4",
        "star": "四星",
        "starNum": 4,
        "park": "句容市天王镇天隆神怡农业休闲观光园",
        "address": "江苏省句容市天王镇天王村",
        "tel": "13605290633",
        "name": "张学华",
        "area": "1200亩",
        "particluar": "有机生态农业为主，生态休闲、会务为辅的生态园，内含八个独具特色的餐饮包间和水上咖啡吧。",
        "lng": "119.196289",
        "lat": "31.73848",
        "imgUrl": "http://qiniu.iwooke.com/images/tId=1595923572996天隆神怡农业休闲观光园.jpg"
    },
    {
        "index": "5",
        "star": "四星",
        "starNum": 4,
        "park": "句容市江苏农博园",
        "address": "江苏省镇江市句容市边城镇二四三省道旁",
        "tel": "0511-87639989",
        "name": "赵俊",
        "area": "5000亩",
        "particluar": "集实习实训、科研开发、生产经营、科普教育、农业生态旅游为一体的具有多个功能分区、综合性的农林科技示范园。园区内生态大道全长约600M，被草业资深院士任继周先生誉为“天下第一路”。",
        "lng": "119.30558",
        "lat": "32.053532",
        "imgUrl": "http://qiniu.iwooke.com/images/tId=1595923275638句容市江苏农博园.png"
    },
    {
        "index": "6",
        "star": "四星",
        "starNum": 4,
        "park": "句容怡景湾度假村",
        "address": "江苏省句容市句茅路春城镇南山子社",
        "tel": "15952993388",
        "name": "陈学文",
        "area": "400亩",
        "particluar": "毗邻国家风景名胜道教圣地茅山和佛教胜地宝华山，是一座具有法国乡村浪漫风情的绿色生态度假村。",
        "lng": "119.259323",
        "lat": "31.915119",
        "imgUrl": "http://qiniu.iwooke.com/images/tId=1595923496973句容怡景湾度假村.png"
    },
    {
        "index": "7",
        "star": "四星",
        "starNum": 4,
        "park": "句容茶博园",
        "address": "江苏省句容市茅山北麓20公里处",
        "tel": "13656106345",
        "name": "史德林",
        "area": "2500亩",
        "particluar": "以“感悟茶文化、体会茶境界”为主题，精心打造特色“茶”文化妙品，是集休闲、养生、教学、科研、文化于一体的茶业博览园。",
        "lng": "119.283234",
        "lat": "31.90871",
        "imgUrl": "http://qiniu.iwooke.com/images/tId=1595923082751句容茶博园.jpg"
    },
    {
        "index": "8",
        "star": "四星",
        "starNum": 4,
        "park": "丁庄葡萄大观园",
        "address": "江苏省句容市茅山镇丁庄村",
        "tel": "13905298330",
        "name": "方静",
        "area": "18000亩",
        "particluar": "集采摘、休闲、餐饮于一体的乡村旅游观光现代农业园。",
        "lng": "119.25515",
        "lat": "31.891821",
        "imgUrl": "http://qiniu.iwooke.com/images/tId=1595922825750丁庄葡萄大观园.jpg"
    },
    {
        "index": "9",
        "star": "四星",
        "starNum": 4,
        "park": "句容市茅宝葛园",
        "address": "江苏省镇江市句容市环湖路茅山镇城盖村邱家",
        "tel": "13905297216",
        "name": "夏荣光",
        "area": "300余亩",
        "particluar": "集农业、农产品加工、文化、科技、休闲时光、旅游、养生为一体。",
        "lng": "119.267982",
        "lat": "31.91567",
        "imgUrl": "http://qiniu.iwooke.com/images/tId=1595923308405句容市茅宝葛园.jpg"
    },
    {
        "index": "10",
        "star": "四星",
        "starNum": 4,
        "park": "句容容北茶谷",
        "address": "江苏省句容市下蜀镇",
        "tel": "15252987466",
        "name": "李婷",
        "area": "1020亩",
        "particluar": "集科研、茶文化、种植、养殖、旅游休闲、观光、餐饮、采摘为一体的绿色茶谷。",
        "lng": "119.191071",
        "lat": "32.169231",
        "imgUrl": "http://qiniu.iwooke.com/images/tId=1595923137774句容容北茶谷.jpg"
    },
    {
        "index": "11",
        "star": "四星",
        "starNum": 4,
        "park": "容南风景生态园",
        "address": "江苏省句容市华阳镇句茅路2.5公里处",
        "tel": "13705291559",
        "name": "汤瑾",
        "area": "1280亩",
        "particluar": "江苏省四星级乡村旅游点，设有水果采摘区、自然观赏区、水上游乐区、农家乐功能区。",
        "lng": "119.212601",
        "lat": "31.910303",
        "imgUrl": "http://qiniu.iwooke.com/images/tId=1595923545930容南风景生态园.jpg"
    },
    {
        "index": "12",
        "star": "三星",
        "starNum": 3,
        "park": "句容市雲霖庄园",
        "address": "江苏省句容市后白镇张庙林场内",
        "tel": "15252981888",
        "name": "倪浩然",
        "area": "600亩",
        "particluar": "内含蔬果采摘、休闲垂钓、露营烧烤、茶叶采摘、生态餐厅、草坪婚礼等多个项目。",
        "lng": "119.148247",
        "lat": "31.876471",
        "imgUrl": ""
    },
    {
        "index": "13",
        "star": "三星",
        "starNum": 3,
        "park": "句容天宁农木科技园有限公司",
        "address": "江苏省句容市东郊镇句路华阳镇下甸行政村",
        "tel": "15952969866",
        "name": "吴来佩",
        "area": "1100亩",
        "particluar": "特色农产品种养殖和农业观光旅游相结合，实施无公害高效农业种植与销售。",
        "lng": "119.227333",
        "lat": "31.9718",
        "imgUrl": "http://qiniu.iwooke.com/images/tId=1595923520652句容智慧农业观光农场.jpg"
    },
    {
        "index": "14",
        "star": "三星",
        "starNum": 3,
        "park": "句容市志仁福元生态农庄",
        "address": "江苏省句容市天王镇涧北村",
        "tel": "18912829008",
        "name": "李学贵",
        "area": "近200亩",
        "particluar": "紧邻国家5A风景旅游区，建筑全部为江南徽式复古建筑，粉墙黛瓦、古朴自然。",
        "lng": "19.223923",
        "lat": "31.75136",
        "imgUrl": "http://qiniu.iwooke.com/images/tId=1595923375415句容市志仁福元生态农庄.jpg"
    },
    {
        "index": "15",
        "star": "三星",
        "starNum": 3,
        "park": "句容市那田山水生态园",
        "address": "江苏省句容市天王镇戴庄村",
        "tel": "18752936928",
        "name": "鲁士兵",
        "area": "1500亩",
        "particluar": "集农业生产销售、科技示范、旅游休闲、养生养老等多项功能为一体的精品休闲农园。",
        "lng": "119.212952",
        "lat": "31.745609",
        "imgUrl": "http://qiniu.iwooke.com/images/tId=1595923341567句容市那田山水生态园.jpg"
    },
    {
        "index": "16",
        "star": "三星",
        "starNum": 3,
        "park": "句容瓦屋山庄",
        "address": "江苏省句容市茅山风景区上杆水库",
        "tel": "13645292512",
        "name": "庄振兴",
        "area": "/",
        "particluar": "宝藏禅寺位于瓦屋山顶，古代的时候曾经和四川的峨眉山并列“蜀中二绝”，传说是道教的发源地之一。",
        "lng": "119.274918",
        "lat": "31.64756",
        "imgUrl": "http://qiniu.iwooke.com/images/tId=1595923460977句容瓦屋山庄.jpg"
    },
    {
        "index": "17",
        "star": "三星",
        "starNum": 3,
        "park": "句容茅山长青绿色生态园",
        "address": "江苏省句容市茅西集镇东500米",
        "tel": "13400092878",
        "name": "王慧",
        "area": "/",
        "particluar": "/",
        "lng": "119.237328",
        "lat": "31.795361",
        "imgUrl": "http://qiniu.iwooke.com/images/tId=1595923110970句容茅山长青绿色生态园.jpg"
    },
    {
        "index": "18",
        "star": "三星",
        "starNum": 3,
        "park": "句容市白鹭农业生态园",
        "address": "江苏省句容市茅山风景区夏林村",
        "tel": "13952966966",
        "name": "钱淑霞",
        "area": "40000平方米",
        "particluar": "集生态餐饮、垂钓休息、野营、烧烤、瓜果采摘、茶叶、农副产品于一体的综合生态园。",
        "lng": "119.289238",
        "lat": "31.78072",
        "imgUrl": "http://qiniu.iwooke.com/images/tId=1595923163991句容市白鹭农业生态园.png"
    },
    {
        "index": "19",
        "star": "三星",
        "starNum": 3,
        "park": "句容市宝华镇宝阳农庄",
        "address": "江苏省句容市宝华镇宝龙大道",
        "tel": "13400094688",
        "name": "陈燕",
        "area": "/",
        "particluar": "/",
        "lng": "119.039803",
        "lat": "32.149071",
        "imgUrl": "http://qiniu.iwooke.com/images/tId=1595923215114句容市宝华镇宝阳农庄.jpg"
    },
    {
        "index": "20",
        "star": "三星",
        "starNum": 3,
        "park": "句容市白兔镇",
        "address": "江苏省句容市白兔镇",
        "tel": "13851610699",
        "name": "王项",
        "area": "115.5平方千米",
        "particluar": "境内气候温和、山清水秀、人文荟萃、社会稳定，是省级首批公布的对外开放重点卫星镇和农业综合开发实验区。",
        "lng": "119.356529",
        "lat": "31.97628",
        "imgUrl": "http://qiniu.iwooke.com/images/tId=1595923187522句容市白兔镇.jpg"
    },
    {
        "index": "21",
        "star": "三星",
        "starNum": 3,
        "park": "赵家庄生态园",
        "address": "江苏省句容市天王镇吴树村",
        "tel": "15952938858",
        "name": "赵鹏",
        "area": "150亩",
        "particluar": "充满农家氛围，和自然零距离接触。",
        "lng": "119.178688",
        "lat": "31.748831",
        "imgUrl": "http://qiniu.iwooke.com/images/tId=1595923599551赵家庄生态园.png"
    },
    {
        "index": "22",
        "star": "三星",
        "starNum": 3,
        "park": "句容智慧农业观光农场",
        "address": "江苏省句容市后白镇徐巷村",
        "tel": "15905291118",
        "name": "周扣生",
        "area": "150余亩",
        "particluar": "进物联网最新技术，自动管道灌溉栽培，生产全程可监控。",
        "lng": "119.161797",
        "lat": "31.867729",
        "imgUrl": ""
    },
    {
        "index": "23",
        "star": "三星",
        "starNum": 3,
        "park": "句容市华超农庄",
        "address": "江苏省句容市九龙山风景区中部马山半山坡",
        "tel": "15162955539",
        "name": "程华超",
        "area": "500余亩",
        "particluar": "人间仙境，天然氧吧，是茅山风景区中面积最大、果品种类最多、应时鲜果保存最长的生态农庄。",
        "lng": "119.255821",
        "lat": "31.634541",
        "imgUrl": "http://qiniu.iwooke.com/images/tId=1595923242870句容市华超农庄.jpg"
    },
    {
        "index": "24",
        "star": "三星",
        "starNum": 3,
        "park": "贵华生态园",
        "address": "江苏省句容市新坊村双石路",
        "tel": "13605171471",
        "name": "杨贵东",
        "particluar": "被原生态包围的绿色空间，园内设棋牌娱乐、垂钓去、田园果蔬区、KTV活动区、烧烤野炊等多项娱乐项目。",
        "lng": "119.14872",
        "lat": "31.901899",
        "imgUrl": "http://qiniu.iwooke.com/images/tId=1595922902700贵华生态园.png"
    },
    {
        "index": "25",
        "star": "三星",
        "starNum": 3,
        "park": "慈悲亭生态园",
        "address": "江苏省句容市S243(机场路)",
        "tel": "15262991777",
        "name": "时礼海",
        "area": "300余亩",
        "particluar": "建筑具古韵，承徽派建筑特点。",
        "lng": "119.16864",
        "lat": "31.94482",
        "imgUrl": "http://qiniu.iwooke.com/images/tId=1595922755944慈悲亭生态园.jpg"
    }
]
